[
  {
    "id": 2643743,
    "name": "London",
    "state": "",
    "country": "GB",
    "coord": {
      "lon": -0.12574,
      "lat": 51.50853
    }
  },
  {
    "id": 184742,
    "name": "Nairobi",
    "state": "",
    "country": "KE",
    "coord": {
      "lon": 36.833328,
      "lat": -1.28333
    }
  },
  {
    "id": 2800866,
    "name": "Brussels",
    "state": "",
    "country": "BE",
    "coord": {
      "lon": 4.34878,
      "lat": 50.850449
    }
  },
  {
    "id": 6167865,
    "name": "Toronto",
    "state": "",
    "country": "CA",
    "coord": {
      "lon": -79.416298,
      "lat": 43.700111
    }
  },
  {
    "id": 2950158,
    "name": "Berlin",
    "state": "",
    "country": "DE",
    "coord": {
      "lon": 10.45,
      "lat": 54.033329
    }
  },
  {
    "id": 2761369,
    "name": "Vienna",
    "state": "",
    "country": "AT",
    "coord": {
      "lon": 16.37208,
      "lat": 48.208488
    }
  },
  {
    "id": 4542692,
    "name": "Miami",
    "state": "OK",
    "country": "US",
    "coord": {
      "lon": -94.877457,
      "lat": 36.874512
    }
  },
  {
    "id": 3128760,
    "name": "Barcelona",
    "state": "",
    "country": "ES",
    "coord": {
      "lon": 2.15899,
      "lat": 41.38879
    }
  },
  {
    "id": 2759794,
    "name": "Amsterdam",
    "state": "",
    "country": "NL",
    "coord": {
      "lon": 4.88969,
      "lat": 52.374031
    }
  },
  {
    "id": 2332459,
    "name": "Lagos",
    "state": "",
    "country": "NG",
    "coord": {
      "lon": 3.39583,
      "lat": 6.45306
    }
  },
  {
    "id": 3169070,
    "name": "Rome",
    "state": "",
    "country": "IT",
    "coord": {
      "lon": 12.4839,
      "lat": 41.894741
    }
  },
  {
    "id": 2988506,
    "name": "Paris",
    "state": "",
    "country": "FR",
    "coord": {
      "lon": 2.34864,
      "lat": 48.85339
    }
  },
  {
    "id": 1850147,
    "name": "Tokyo",
    "state": "",
    "country": "JP",
    "coord": {
      "lon": 139.691711,
      "lat": 35.689499
    }
  },
  {
    "id": 1273294,
    "name": "Delhi",
    "state": "",
    "country": "IN",
    "coord": {
      "lon": 77.216667,
      "lat": 28.666668
    }
  },
  {
    "id": 1816670,
    "name": "Beijing",
    "state": "",
    "country": "CN",
    "coord": {
      "lon": 116.397232,
      "lat": 39.907501
    }
  }
]
